[
  {
    "brand": "apple",
    "name": "Jump+",
    "pin_icon": "apple_pin",
    "description": "Locate Apple Phones",
    "address": "300 Borough Dr, Scarborough, ON M1P 4P5",
    "closeHours": "5:00 pm",
    "image": "jump",
    "latitude": 43.7755398,
    "longitude": -79.260746,
    "openHours": "10:00 am",
    "phoneNumber": "+1 (647) 417-1434",
    "website": "http://jumpplus.com"
  },
  {
    "brand": "apple",
    "name": "Jump+",
    "pin_icon": "apple_pin",
    "description": "Locate Apple Phones",
    "address": "1 Bass Pro Mills Dr, Concord, ON L4K 5W4",
    "closeHours": "5:00 pm",
    "image": "jump",
    "latitude": 43.726844,
    "longitude": -79.5624598,
    "openHours": "10:00 am",
    "phoneNumber": "+1 (289) 459-1887",
    "website": "http://jumpplus.com"
  },
  {
    "brand": "apple",
    "name": "Best Buy",
    "pin_icon": "apple_pin",
    "description": "Locate Apple Phones",
    "address": "480 Progress Ave, Scarborough, ON M1P 5J1",
    "closeHours": "5:00 pm",
    "image": "bestbuy",
    "latitude": 43.773719,
    "longitude": -79.3990286,
    "openHours": "10:00 am",
    "phoneNumber": "+1 (866) 237-8289",
    "website": "https://stores.bestbuy.ca"
  },
  {
    "brand": "google",
    "listDescription": "Locate Google Phones",
    "name": "Best Buy",
    "pin_icon": "google_pin",
    "address": "480 Progress Ave, Scarborough, ON M1P 5J1",
    "closeHours": "5:00 pm",
    "image": "bestbuy",
    "latitude": 43.773719,
    "longitude": -79.3990286,
    "openHours": "10:00 am",
    "phoneNumber": "+1 (866) 237-8289",
    "website": "https://stores.bestbuy.ca"
  },
  {
    "brand": "google",
    "listDescription": "Locate Google Phones",
    "name": "Best Buy",
    "pin_icon": "google_pin",
    "address": "5000 Hwy 7 Unit 2070L, Markham, ON L3R 4M9",
    "closeHours": "5:00 pm",
    "image": "bestbuy",
    "latitude": 43.8692615,
    "longitude": -79.291075,
    "openHours": "10:00 am",
    "phoneNumber": "+1 (866) 237-8289",
    "website": "https://stores.bestbuy.ca"
  },
  {
    "brand": "samsung",
    "listDescription": "Locate Samsung Phones",
    "name": "Samsung Experience Store",
    "pin_icon": "samsung_pin",
    "address": "3401 Dufferin St Unit 508, North York, ON M6A 2T9",
    "closeHours": "5:00 pm",
    "image": "samsung",
    "latitude": 43.7752514,
    "longitude": -79.3277146,
    "openHours": "10:00 am",
    "phoneNumber": "+1 (416) 775-3527",
    "website": "http://www.samsung.com/ca/ses"
  },
  {
    "brand": "samsung",
    "listDescription": "Locate Samsung Phones",
    "name": "Samsung Experience Store",
    "pin_icon": "samsung_pin",
    "address": "220 Yonge St, Toronto, ON M5B 2H1",
    "closeHours": "5:00 pm",
    "image": "samsung",
    "latitude": 43.7305344,
    "longitude": -79.4627086,
    "openHours": "10:00 am",
    "phoneNumber": "+1 (416) 775-3527",
    "website": "http://www.samsung.com/ca/ses"
  },
  {
    "name": "Best Buy",
    "pin_icon": "oppo_pin",
    "brand": "oppo",
    "listDescription": "Locate Oppo Phones",
    "address": "480 Progress Ave, Scarborough, ON M1P 5J1",
    "closeHours": "5:00 pm",
    "image": "bestbuy",
    "latitude": 43.773719,
    "longitude": -79.3990286,
    "openHours": "10:00 am",
    "phoneNumber": "+1 (866) 237-8289",
    "website": "https://stores.bestbuy.ca"
  }
]